[{"station":"USW00026451","name":"Anchorage","latitude":61.169,"longitude":-150.0278,"elevation":36.6},{"station":"USW00026615","name":"Bethel","latitude":60.785,"longitude":-161.8293,"elevation":31.1},{"station":"USW00026533","name":"Bettles","latitude":66.9169,"longitude":-151.5154,"elevation":196.0},{"station":"USW00025624","name":"Cold Bay","latitude":55.22083,"longitude":-162.7325,"elevation":23.8},{"station":"USW00026415","name":"Delta Junction","latitude":63.9944,"longitude":-145.7214,"elevation":389.2},{"station":"USW00026411","name":"Fairbanks","latitude":64.8039,"longitude":-147.8761,"elevation":131.7},{"station":"USW00026425","name":"Gulkana","latitude":62.1591,"longitude":-145.4588,"elevation":476.1},{"station":"USW00025507","name":"Homer","latitude":59.642,"longitude":-151.4908,"elevation":19.5},{"station":"USW00025309","name":"Juneau","latitude":58.3566,"longitude":-134.564,"elevation":4.9},{"station":"USW00025325","name":"Ketchikan","latitude":55.35667,"longitude":-131.71167,"elevation":23.2},{"station":"USW00025503","name":"King Salmon","latitude":58.6829,"longitude":-156.6563,"elevation":20.4},{"station":"USW00025501","name":"Kodiak","latitude":57.75111,"longitude":-152.48556,"elevation":24.4},{"station":"USW00026616","name":"Kotzebue","latitude":66.86667,"longitude":-162.63333,"elevation":9.1},{"station":"USW00026510","name":"McGrath","latitude":62.9574,"longitude":-155.6103,"elevation":101.5},{"station":"USW00026617","name":"Nome","latitude":64.5111,"longitude":-165.44,"elevation":4.0},{"station":"USW00025713","name":"St Paul Island","latitude":57.15528,"longitude":-170.22222,"elevation":10.7},{"station":"USW00026528","name":"Talkeetna","latitude":62.32,"longitude":-150.095,"elevation":106.7},{"station":"USW00027502","name":"Utqia\u0121vik","latitude":71.2834,"longitude":-156.7815,"elevation":9.4},{"station":"USW00025339","name":"Yakutat AP","latitude":59.512,"longitude":-139.6712,"elevation":10.1}]
